{"addresses":
    [{
        "id":"1",
        "address":"Lägerhyddsvägen 2",
        "coordinates":[59.840199,17.650228]
    },
    {
        "id":"2",
        "address":"Domkyrkoplan",
        "coordinates":[59.8580863,17.6336307]
    },
    {
        "id":"3",
        "address":"Björkgatan 33A",
        "coordinates":[59.861087,17.665358]
    },
    {
        "id":"4",
        "address":"Svartbäcksgatan 49",
        "coordinates":[59.8654372,17.6303066]
    },
    {
        "id":"5",
        "address":"Stora Torget",
        "coordinates":[59.858593,17.638674]
    }
]}